Availability,Network,Domain,SiteCode,SiteName,StreamName,Latitude,Longitude,SiteType,AreaHectares,Observations,Variables,FirstRecordUTC,LastRecordUTC,ExternalLink
<button type='button' id='lter_arctic_Dimple_Inlet_Main'>view</button>,LTER,Arctic,Dimple_Inlet_Main,"Dimple Inlet: Birthday Creek, North Slope of Alaska, Anaktuvuk River Fire Impacted Site",Birthday Creek,68.9505,-150.198,stream_sampling_point,NA,2018,20,2008-05-25T00:00:00Z,2010-08-18T00:00:00Z,feature not yet built
<button type='button' id='lter_arctic_Dimple_Outlet_Main'>view</button>,LTER,Arctic,Dimple_Outlet_Main,"Dimple Outlet: Birthday Creek, North Slope of Alaska, Anaktuvuk River Fire Impacted Site",Birthday Creek,68.9574,-150.2,stream_sampling_point,NA,2121,20,2008-05-27T00:00:00Z,2010-08-19T00:00:00Z,feature not yet built
<button type='button' id='lter_arctic_I-Minus_2_IMP'>view</button>,LTER,Arctic,I-Minus_2_IMP,"I Minus 2 IMP: North Slope of Alaska, Thermokarst Impacted Stream",NA,68.5483,-149.522,stream_sampling_point,NA,5653,35,2007-07-26T00:00:00Z,2015-07-28T00:00:00Z,feature not yet built
<button type='button' id='lter_arctic_I-Minus_2_REF'>view</button>,LTER,Arctic,I-Minus_2_REF,"I Minus 2 REF: North Slope of Alaska, Thermokarst Reference Stream",NA,68.548,-149.521,stream_sampling_point,NA,5631,35,2007-07-26T00:00:00Z,2015-07-28T00:00:00Z,feature not yet built
<button type='button' id='lter_arctic_I-Minus_2_TK_High'>view</button>,LTER,Arctic,I-Minus_2_TK_High,"I Minus 2 TK High: North Slope of Alaska, Thermokarst Watertrack",NA,68.5443,-149.522,stream_sampling_point,NA,3713,35,2007-08-07T00:00:00Z,2015-06-18T00:00:00Z,feature not yet built
<button type='button' id='lter_arctic_I-Minus_2_TK_Low'>view</button>,LTER,Arctic,I-Minus_2_TK_Low,"I Minus 2 TK Low: North Slope of Alaska, Thermokarst Watertrack",NA,68.5479,-149.522,stream_sampling_point,NA,5189,35,2007-07-26T00:00:00Z,2015-07-28T00:00:00Z,feature not yet built
<button type='button' id='lter_arctic_Imnavait_Creek_A'>view</button>,LTER,Arctic,Imnavait_Creek_A,"Imnavait Creek A: Imnavait Creek, North Slope of Alaska",Imnavait Creek,68.6166,-149.318,stream_sampling_point,NA,2815,20,1999-07-10T00:00:00Z,2016-07-31T00:00:00Z,feature not yet built
<button type='button' id='lter_arctic_Imnavait_Creek_AA'>view</button>,LTER,Arctic,Imnavait_Creek_AA,"Imnavait Creek AA: Imnavait Creek, North Slope of Alaska",Imnavait Creek,68.6177,-149.318,stream_sampling_point,NA,2741,20,2007-06-24T00:00:00Z,2016-07-31T00:00:00Z,feature not yet built
<button type='button' id='lter_arctic_Imnavait_Creek_B'>view</button>,LTER,Arctic,Imnavait_Creek_B,"Imnavait Creek B: Imnavait Creek, North Slope of Alaska",Imnavait Creek,68.6206,-149.319,stream_sampling_point,NA,3025,20,1999-07-10T00:00:00Z,2016-07-31T00:00:00Z,feature not yet built
<button type='button' id='lter_arctic_Imnavait_Creek_C'>view</button>,LTER,Arctic,Imnavait_Creek_C,"Imnavait Creek C: Imnavait Creek, North Slope of Alaska",Imnavait Creek,68.6229,-149.321,stream_sampling_point,NA,2881,20,1999-07-10T00:00:00Z,2016-07-31T00:00:00Z,feature not yet built
<button type='button' id='lter_arctic_Imnavait_Creek_D'>view</button>,LTER,Arctic,Imnavait_Creek_D,"Imnavait Creek D: Imnavait Creek, North Slope of Alaska",Imnavait Creek,68.6253,-149.325,stream_sampling_point,NA,2882,20,1999-07-10T00:00:00Z,2016-07-31T00:00:00Z,feature not yet built
<button type='button' id='lter_arctic_Imnavait_Creek_E'>view</button>,LTER,Arctic,Imnavait_Creek_E,"Imnavait Creek E: Imnavait Creek, North Slope of Alaska",Imnavait Creek,68.642,-149.343,stream_sampling_point,NA,2861,20,1999-07-10T00:00:00Z,2016-07-31T00:00:00Z,feature not yet built
<button type='button' id='lter_arctic_Kuparuk_River_-0.1'>view</button>,LTER,Arctic,Kuparuk_River_-0.1,NA,Kuparuk River,68.639236,-149.393711,stream_gauge,54.0629552028308,9641,19,1978-05-21T00:00:00Z,2019-09-12T00:00:00Z,feature not yet built
<button type='button' id='lter_arctic_Kuparuk_River_-0.177'>view</button>,LTER,Arctic,Kuparuk_River_-0.177,"Kuparuk -0.177k: Kuparuk River, North Slope of Alaska, reference reach, upstream of the fertilized reach",Kuparuk River,68.6381,-149.392,stream_gauge,37.3570360596656,28719,36,1978-05-21T00:00:00Z,2019-09-12T00:00:00Z,feature not yet built
<button type='button' id='lter_arctic_Kuparuk_River_-0.3'>view</button>,LTER,Arctic,Kuparuk_River_-0.3,"Kuparuk -0.3k: Kuparuk River, North Slope of Alaska, reference reach, upstream of the fertilized reach",Kuparuk River,68.6384,-149.389,stream_gauge,NA,35114,45,1978-05-21T00:00:00Z,2019-09-12T00:00:00Z,feature not yet built
<button type='button' id='lter_arctic_Kuparuk_River_-0.47'>view</button>,LTER,Arctic,Kuparuk_River_-0.47,"Kuparuk -0.47k: Kuparuk River, North Slope of Alaska, reference reach, upstream of the fertilized reach",Kuparuk River,68.6374,-149.387,stream_gauge,13062.5558043597,8303,55,1978-05-21T00:00:00Z,2019-09-12T00:00:00Z,feature not yet built
<button type='button' id='lter_arctic_Kuparuk_River_-0.7'>view</button>,LTER,Arctic,Kuparuk_River_-0.7,"Kuparuk -0.7k: Kuparuk River, North Slope of Alaska, reference reach, upstream of the fertilized reach",Kuparuk River,68.6369,-149.384,stream_gauge,12953.1973768699,5968,20,1978-05-21T00:00:00Z,2019-09-12T00:00:00Z,feature not yet built
<button type='button' id='lter_arctic_Kuparuk_River_0'>view</button>,LTER,Arctic,Kuparuk_River_0,Kuparuk 0.0k: Kuparuk 0.0k,Kuparuk River,68.6391,-149.394,stream_gauge,13120.6598581259,8315,26,1978-05-21T00:00:00Z,2019-09-12T00:00:00Z,feature not yet built
<button type='button' id='lter_arctic_Kuparuk_River_0.3'>view</button>,LTER,Arctic,Kuparuk_River_0.3,"Kuparuk 0.3k: Kuparuk River, North Slope of Alaska, re-fertilized reach, formerly the recovery reach after historic fertilization",Kuparuk River,68.6407,-149.401,stream_gauge,13198.2075717951,15866,55,1978-05-21T00:00:00Z,2019-09-12T00:00:00Z,feature not yet built
<button type='button' id='lter_arctic_Kuparuk_River_0.56'>view</button>,LTER,Arctic,Kuparuk_River_0.56,"Kuparuk 0.56k: Kuparuk River, North Slope of Alaska, re-fertilized reach, formerly the recovery reach after historic fertilization",Kuparuk River,68.6421,-149.404,stream_gauge,13136.3460196831,36037,55,1978-05-21T00:00:00Z,2019-09-12T00:00:00Z,feature not yet built
<button type='button' id='lter_arctic_Kuparuk_River_0.74'>view</button>,LTER,Arctic,Kuparuk_River_0.74,"Kuparuk 0.74k: Kuparuk River, North Slope of Alaska, re-fertilized reach, formerly the recovery reach after historic fertilization",Kuparuk River,68.6432,-149.403,stream_gauge,13197.5957351979,31328,29,1978-05-21T00:00:00Z,2019-09-12T00:00:00Z,feature not yet built
<button type='button' id='lter_arctic_Kuparuk_River_1'>view</button>,LTER,Arctic,Kuparuk_River_1,"Kuparuk 1.0k: Kuparuk River, North Slope of Alaska, re-fertilized reach, formerly the recovery reach after historic fertilization",Kuparuk River,68.6447,-149.405,stream_gauge,13270.370050384,29604,79,1978-05-21T00:00:00Z,2019-09-12T00:00:00Z,feature not yet built
<button type='button' id='lter_arctic_Kuparuk_River_1.39'>view</button>,LTER,Arctic,Kuparuk_River_1.39,"Kuparuk 1.39k: Kuparuk River, North Slope of Alaska, re-fertilized reach, formerly the recovery reach after historic fertilization",Kuparuk River,68.6463,-149.41,stream_gauge,14504.249569257,27274,50,1978-05-21T00:00:00Z,2019-09-12T00:00:00Z,feature not yet built
<button type='button' id='lter_arctic_Kuparuk_River_1.5'>view</button>,LTER,Arctic,Kuparuk_River_1.5,NA,Kuparuk River,68.64756,-149.411706,stream_gauge,14344.1937789609,7985,20,1978-05-21T00:00:00Z,2019-09-12T00:00:00Z,feature not yet built
<button type='button' id='lter_arctic_Kuparuk_River_1.8'>view</button>,LTER,Arctic,Kuparuk_River_1.8,"Kuparuk 1.8k: Kuparuk River, North Slope of Alaska, fertilized reach",Kuparuk River,68.6478,-149.416,stream_gauge,NA,28794,23,1978-05-21T00:00:00Z,2019-09-12T00:00:00Z,feature not yet built
<button type='button' id='lter_arctic_Kuparuk_River_2'>view</button>,LTER,Arctic,Kuparuk_River_2,"Kuparuk 2.0k: Kuparuk River, North Slope of Alaska, fertilized reach",Kuparuk River,68.6495,-149.416,stream_gauge,NA,39875,59,1978-05-21T00:00:00Z,2019-09-12T00:00:00Z,feature not yet built
<button type='button' id='lter_arctic_Kuparuk_River_2.5'>view</button>,LTER,Arctic,Kuparuk_River_2.5,"Kuparuk 2.5k: Kuparuk River, North Slope of Alaska, fertilized reach",Kuparuk River,68.6523,-149.415,stream_gauge,14693.8176955571,24286,53,1978-05-21T00:00:00Z,2019-09-12T00:00:00Z,feature not yet built
<button type='button' id='lter_arctic_Kuparuk_River_3'>view</button>,LTER,Arctic,Kuparuk_River_3,"Kuparuk 3.0k: Kuparuk River, North Slope of Alaska, fertilized reach",Kuparuk River,68.6537,-149.421,stream_gauge,14452.0009725321,29973,49,1978-05-21T00:00:00Z,2019-09-12T00:00:00Z,feature not yet built
<button type='button' id='lter_arctic_Kuparuk_River_4'>view</button>,LTER,Arctic,Kuparuk_River_4,"Kuparuk 4.0k: Kuparuk River, North Slope of Alaska, fertilized reach",Kuparuk River,68.6588,-149.424,stream_gauge,14832.2648309963,22381,63,1978-05-21T00:00:00Z,2019-09-12T00:00:00Z,feature not yet built
<button type='button' id='lter_arctic_Kuparuk_River_4.1'>view</button>,LTER,Arctic,Kuparuk_River_4.1,NA,Kuparuk River,68.659528,-149.425365,stream_gauge,14805.8942122044,10635,47,1978-05-21T00:00:00Z,2019-09-12T00:00:00Z,feature not yet built
<button type='button' id='lter_arctic_North_River_Main'>view</button>,LTER,Arctic,North_River_Main,"North River Main: North River, North Slope of Alaska, Anaktuvuk River Fire Impacted Site",North River,69.0553,-150.399,stream_sampling_point,NA,3498,31,2008-07-10T00:00:00Z,2015-07-14T00:00:00Z,feature not yet built
<button type='button' id='lter_arctic_Oksrukuyik_Creek_-0.1'>view</button>,LTER,Arctic,Oksrukuyik_Creek_-0.1,Oksrukuyik -0.1k: Oksrukuyik -0.1k,Oksrukuyik Creek,68.6715,-149.128,stream_gauge,7011.03469524265,30821,28,1989-06-05T00:00:00Z,2019-09-11T00:00:00Z,feature not yet built
<button type='button' id='lter_arctic_Oksrukuyik_Creek_-0.3'>view</button>,LTER,Arctic,Oksrukuyik_Creek_-0.3,"Oksrukuyik -0.3k: Oksrukuyik Creek, North Slope of Alaska, reference reach, upstream of the formerly fertilized reach",Oksrukuyik Creek,68.6714,-149.131,stream_gauge,6120.84059163305,27284,26,1989-06-05T00:00:00Z,2019-09-11T00:00:00Z,feature not yet built
<button type='button' id='lter_arctic_Oksrukuyik_Creek_-0.7'>view</button>,LTER,Arctic,Oksrukuyik_Creek_-0.7,"Oksrukuyik -0.7k: Oksrukuyik Creek, North Slope of Alaska, reference reach, upstream of the formerly fertilized reach",Oksrukuyik Creek,68.671,-149.138,stream_gauge,5888.11261939474,31341,28,1989-06-05T00:00:00Z,2019-09-11T00:00:00Z,feature not yet built
<button type='button' id='lter_arctic_Oksrukuyik_Creek_-1.2'>view</button>,LTER,Arctic,Oksrukuyik_Creek_-1.2,"Oksrukuyik -1.2k: Oksrukuyik Creek, North Slope of Alaska, reference reach, upstream of the formerly fertilized reach",Oksrukuyik Creek,68.6693,-149.146,stream_gauge,5790.80986698557,4810,26,1989-06-05T00:00:00Z,2019-09-11T00:00:00Z,feature not yet built
<button type='button' id='lter_arctic_Oksrukuyik_Creek_0.23'>view</button>,LTER,Arctic,Oksrukuyik_Creek_0.23,NA,Oksrukuyik Creek,68.674104,-149.122683,stream_gauge,6910.88417912511,8233,17,1989-06-05T00:00:00Z,2019-09-11T00:00:00Z,feature not yet built
<button type='button' id='lter_arctic_Oksrukuyik_Creek_0.48'>view</button>,LTER,Arctic,Oksrukuyik_Creek_0.48,NA,Oksrukuyik Creek,68.674851,-149.122057,stream_gauge,7125.10746086196,6927,17,1989-06-05T00:00:00Z,2019-09-11T00:00:00Z,feature not yet built
<button type='button' id='lter_arctic_Oksrukuyik_Creek_1.06'>view</button>,LTER,Arctic,Oksrukuyik_Creek_1.06,NA,Oksrukuyik Creek,68.6782,-149.117129,stream_gauge,7105.69294885649,10072,23,1989-06-05T00:00:00Z,2019-09-11T00:00:00Z,feature not yet built
<button type='button' id='lter_arctic_Oksrukuyik_Creek_1.37'>view</button>,LTER,Arctic,Oksrukuyik_Creek_1.37,"Oksrukuyik 1.37k: Oksrukuyik Creek, North Slope of Alaska, recovery reach, formerly fertilized reach",Oksrukuyik Creek,68.6798,-149.114,stream_gauge,7094.08482816402,7203,21,1989-06-05T00:00:00Z,2019-09-11T00:00:00Z,feature not yet built
<button type='button' id='lter_arctic_Oksrukuyik_Creek_1.7'>view</button>,LTER,Arctic,Oksrukuyik_Creek_1.7,NA,Oksrukuyik Creek,68.682117,-149.112195,stream_gauge,7143.66443166122,7513,17,1989-06-05T00:00:00Z,2019-09-11T00:00:00Z,feature not yet built
<button type='button' id='lter_arctic_Oksrukuyik_Creek_2.5'>view</button>,LTER,Arctic,Oksrukuyik_Creek_2.5,NA,Oksrukuyik Creek,68.685997009277,-149.098999023438,stream_gauge,7292.25832880853,6973,17,1989-06-05T00:00:00Z,2019-09-11T00:00:00Z,feature not yet built
<button type='button' id='lter_arctic_Oksrukuyik_Creek_2.7'>view</button>,LTER,Arctic,Oksrukuyik_Creek_2.7,"Oksrukuyik 2.7k: Oksrukuyik Creek, North Slope of Alaska, recovery reach, formerly fertilized reach",Oksrukuyik Creek,68.686,-149.099,stream_gauge,7345.07154517282,6852,12,1989-06-05T00:00:00Z,2019-09-11T00:00:00Z,feature not yet built
<button type='button' id='lter_arctic_Roche_Moutonnee_Creek_Main'>view</button>,LTER,Arctic,Roche_Moutonnee_Creek_Main,"Roche Moutonnee Creek Main: Roche Moutonnee Creek, Brooks Range, Alaska, upstream of Dalton Highway crossing",Roche Moutonnee Creek,68.3737,-149.309,stream_gauge,8410.86336429893,6476,15,2015-06-28T00:00:00Z,2017-10-11T00:00:00Z,feature not yet built
<button type='button' id='lter_arctic_South_River_Main'>view</button>,LTER,Arctic,South_River_Main,"South River Main: South River, North Slope of Alaska, Anaktuvuk River Fire and Thermokarst Impacted Site",South River,68.9975,-150.308,stream_sampling_point,NA,4463,32,2008-05-27T00:00:00Z,2015-07-14T00:00:00Z,feature not yet built
<button type='button' id='lter_arctic_TLKMAIN'>view</button>,LTER,Arctic,TLKMAIN,Toolik Field Station,NA,68.6282,-149.596,rain_gauge,NA,367540,1,1988-06-01T00:00:00Z,2018-12-31T00:00:00Z,feature not yet built
<button type='button' id='lter_arctic_Toolik_Inlet_Main'>view</button>,LTER,Arctic,Toolik_Inlet_Main,"Toolik Inlet Main: Toolik Inlet, North Slope of Alaska, about 50 meters upstream of foot bridge",Toolik River,68.6256,-149.595,stream_gauge,4821.11996898384,15723,10,1991-07-17T00:00:00Z,2018-10-08T00:00:00Z,feature not yet built
<button type='button' id='lter_arctic_Toolik_River_IMP'>view</button>,LTER,Arctic,Toolik_River_IMP,"Toolik River IMP: North Slope of Alaska, Thermokarst Impacted Stream",Toolik River,68.6955,-149.208,stream_sampling_point,NA,6454,35,2007-07-19T00:00:00Z,2015-08-09T00:00:00Z,feature not yet built
<button type='button' id='lter_arctic_Toolik_River_REF'>view</button>,LTER,Arctic,Toolik_River_REF,"Toolik River REF: North Slope of Alaska, Thermokarst Reference Stream",Toolik River,68.6957,-149.205,stream_sampling_point,NA,7073,35,2007-07-19T00:00:00Z,2015-08-09T00:00:00Z,feature not yet built
<button type='button' id='lter_arctic_Toolik_River_TK_Above'>view</button>,LTER,Arctic,Toolik_River_TK_Above,Toolik River TK Above: Toolik River TK Above,Toolik River,68.6907,-149.208,stream_sampling_point,NA,4602,35,2004-08-05T00:00:00Z,2015-08-09T00:00:00Z,feature not yet built
<button type='button' id='lter_arctic_Toolik_River_TK_Low'>view</button>,LTER,Arctic,Toolik_River_TK_Low,Toolik River TK Low: Toolik River TK Low,Toolik River,68.6938,-149.204,stream_sampling_point,NA,4588,35,2004-08-05T00:00:00Z,2015-08-09T00:00:00Z,feature not yet built
<button type='button' id='lter_arctic_Toolik_River_TK_Mid'>view</button>,LTER,Arctic,Toolik_River_TK_Mid,Toolik River TK Mid: Toolik River TK Mid,Toolik River,68.6922,-149.207,stream_sampling_point,NA,3522,35,2004-08-05T00:00:00Z,2015-08-09T00:00:00Z,feature not yet built
<button type='button' id='lter_arctic_Trevor_Creek_Main'>view</button>,LTER,Arctic,Trevor_Creek_Main,"Trevor Creek Main: Trevor Creek, Brooks Range, Alaska, upstream of Dalton Highway crossing",Trevor Creek,68.2822,-149.37,stream_gauge,4275.23107810715,7351,15,2004-07-05T00:00:00Z,2019-09-13T00:00:00Z,feature not yet built
<button type='button' id='lter_arctic_VTK_IMP_Main'>view</button>,LTER,Arctic,VTK_IMP_Main,"VTK IMP Main: Impacted Valley of the Thermokarst, North Slope of Alaska, Anaktuvuk River Fire and Thermokarst Impacted Site",NA,68.961,-150.701,stream_sampling_point,NA,2292,30,2010-06-23T00:00:00Z,2015-07-14T00:00:00Z,feature not yet built
<button type='button' id='lter_arctic_VTK_REF_Main'>view</button>,LTER,Arctic,VTK_REF_Main,"VTK REF Main: Impacted Valley of the Thermokarst, North Slope of Alaska, Anaktuvuk River Fire and Thermokarst Impacted Site",NA,68.9354,-150.678,stream_sampling_point,NA,2292,31,2010-06-23T00:00:00Z,2015-07-14T00:00:00Z,feature not yet built
<button type='button' id='lter_baltimore_BARN'>view</button>,LTER,Baltimore,BARN,Baisman Run at Ivy Hill Road,Baisman Run,39.4794,-76.678,stream_gauge,382.395121543823,140239,19,1998-12-05T00:00:00Z,2020-12-19T00:00:00Z,feature not yet built
<button type='button' id='lter_baltimore_DRKR'>view</button>,LTER,Baltimore,DRKR,Dead Run at Krome Avenue,Dead Run,39.3112,-76.717,stream_gauge,1411.38315697822,58400,14,1998-07-09T00:00:00Z,2020-12-19T00:00:00Z,feature not yet built
<button type='button' id='lter_baltimore_GF5'>view</button>,LTER,Baltimore,GF5,"Gwynns Falls at McDonogh Road, Suburban",Gwynns Falls,39.39121,-76.765326,stream_sampling_point,NA,2666,6,1999-04-06T00:00:00Z,2000-09-06T00:00:00Z,feature not yet built
<button type='button' id='lter_baltimore_GFCP'>view</button>,LTER,Baltimore,GFCP,Gwynns Falls at Carroll Park,Gwynns Falls,39.2715,-76.649,stream_gauge,16317.4478798946,29147,14,1998-10-16T00:00:00Z,2020-12-01T00:00:00Z,feature not yet built
<button type='button' id='lter_baltimore_GFGB'>view</button>,LTER,Baltimore,GFGB,Gwynns Falls at Gwynnbrook Avenue,Gwynns Falls,39.443,-76.783,stream_gauge,1052.82335077648,137184,19,1998-10-01T00:00:00Z,2020-12-19T00:00:00Z,feature not yet built
<button type='button' id='lter_baltimore_GFGL'>view</button>,LTER,Baltimore,GFGL,Gwynns Falls at Glyndon,Gwynns Falls,39.4718,-76.817,stream_gauge,85.4460652716263,133555,19,1998-10-01T00:00:00Z,2019-06-07T00:00:00Z,feature not yet built
<button type='button' id='lter_baltimore_GFVN'>view</button>,LTER,Baltimore,GFVN,Gwynns Falls at Villa Nova,Gwynns Falls,39.3458,-76.733,stream_gauge,8295.10280539584,80549,14,1981-02-02T00:00:00Z,2020-12-19T00:00:00Z,feature not yet built
<button type='button' id='lter_baltimore_HH'>view</button>,LTER,Baltimore,HH,"Horsehead Branch at McDonogh Road, Suburban",Horsehead Branch,39.389581,-76.779703,stream_sampling_point,NA,2610,6,1999-04-06T00:00:00Z,2000-09-02T00:00:00Z,feature not yet built
<button type='button' id='lter_baltimore_HLB'>view</button>,LTER,Baltimore,HLB,"Holly Branch at Gwynnbrook Avenue, Suburban",Holly Branch,39.1027778,-76.791111,stream_sampling_point,NA,2362,6,1999-06-24T00:00:00Z,2000-09-08T00:00:00Z,feature not yet built
<button type='button' id='lter_baltimore_JBHH'>view</button>,LTER,Baltimore,JBHH,Jennifer Branch at Hartford Hills,Jennifer Branch,39.3993,-76.52,stream_sampling_point,NA,32332,11,2003-08-20T00:00:00Z,2010-05-12T00:00:00Z,feature not yet built
<button type='button' id='lter_baltimore_JBNW'>view</button>,LTER,Baltimore,JBNW,Jennifer Branch at Northwind,Jennifer Branch,NA,NA,stream_sampling_point,NA,12295,10,2003-08-20T00:00:00Z,2010-06-09T00:00:00Z,feature not yet built
<button type='button' id='lter_baltimore_JBON'>view</button>,LTER,Baltimore,JBON,Jennifer Branch at Ontario,Jennifer Branch,NA,NA,stream_sampling_point,NA,13519,11,2003-08-20T00:00:00Z,2010-05-12T00:00:00Z,feature not yet built
<button type='button' id='lter_baltimore_MAWI'>view</button>,LTER,Baltimore,MAWI,Maidens Choice at Wilkens Avenue,Maidens Choice,39.2755,-76.666,stream_gauge,1217.57110640112,5009,13,2001-10-02T00:00:00Z,2017-12-31T00:00:00Z,feature not yet built
<button type='button' id='lter_baltimore_MCDN'>view</button>,LTER,Baltimore,MCDN,McDonogh agricultural site,NA,39.4004,-76.77,stream_gauge,5.61447168191599,103447,19,1999-12-01T00:00:00Z,2019-06-07T00:00:00Z,feature not yet built
<button type='button' id='lter_baltimore_POBR'>view</button>,LTER,Baltimore,POBR,Pond Branch forested reference site,Pond Branch,39.4803,-76.688,stream_gauge,35.797559317447,129558,19,1998-04-16T00:00:00Z,2020-12-01T00:00:00Z,feature not yet built
<button type='button' id='lter_baltimore_RGHT'>view</button>,LTER,Baltimore,RGHT,Rognel Heights,NA,39.2547,-76.69,stream_sampling_point,NA,10565,12,1999-02-26T00:00:00Z,2017-01-13T00:00:00Z,feature not yet built
<button type='button' id='lter_baltimore_RR1'>view</button>,LTER,Baltimore,RR1,"Red Run at Painters Mill Bridge Road, Suburban",Red Run,39.404756,-76.779566,stream_sampling_point,NA,2602,6,1999-04-06T00:00:00Z,2000-08-29T00:00:00Z,feature not yet built
<button type='button' id='lter_baltimore_RR2'>view</button>,LTER,Baltimore,RR2,"Red Run at Painters Mill Bridge Road, Suburban",Red Run,39.4113889,-76.8130556,stream_sampling_point,NA,2602,6,1999-04-06T00:00:00Z,2000-08-29T00:00:00Z,feature not yet built
<button type='button' id='lter_baltimore_SL1'>view</button>,LTER,Baltimore,SL1,"Scotts Level Branch at Gwynns Falls, Suburban",Scotts Level Branch,39.360495,-76.745558,stream_sampling_point,NA,2678,6,1999-04-06T00:00:00Z,2000-09-08T00:00:00Z,feature not yet built
<button type='button' id='lter_baltimore_SL2'>view</button>,LTER,Baltimore,SL2,"Scotts Level Branch at McDonogh Road,Suburban",Scotts Level Branch,39.373866,-76.791005,stream_sampling_point,NA,2678,6,1999-04-06T00:00:00Z,2000-09-08T00:00:00Z,feature not yet built
<button type='button' id='lter_bonanza_boston_creek'>view</button>,LTER,Bonanza Creek,boston_creek,NA,NA,65.23,-147.12,stream_sampling_point,NA,1600,15,2005-06-03T00:00:00Z,2006-06-23T00:00:00Z,feature not yet built
<button type='button' id='lter_bonanza_C2'>view</button>,LTER,Bonanza Creek,C2,NA,NA,65.159188,-147.607454,stream_gauge,494.220404853478,130429,22,1969-06-17T00:00:00Z,2018-08-22T00:00:00Z,feature not yet built
<button type='button' id='lter_bonanza_C3'>view</button>,LTER,Bonanza Creek,C3,NA,NA,65.144853,-147.574368,stream_gauge,NA,130017,21,1969-05-20T00:00:00Z,2018-08-22T00:00:00Z,feature not yet built
<button type='button' id='lter_bonanza_C4'>view</button>,LTER,Bonanza Creek,C4,Little Poker Creek,NA,65.162726,-147.50057,stream_gauge,0.658448056033891,127574,21,1980-05-22T00:00:00Z,2018-08-22T00:00:00Z,feature not yet built
<button type='button' id='lter_bonanza_CB'>view</button>,LTER,Bonanza Creek,CB,NA,NA,65.15,-147.56,stream_sampling_point,NA,25742,16,2002-05-21T00:00:00Z,2018-06-19T00:00:00Z,feature not yet built
<button type='button' id='lter_bonanza_CJ'>view</button>,LTER,Bonanza Creek,CJ,NA,Caribou Creek,65.15147902,-147.4856181,stream_sampling_point,NA,33479,16,2002-05-14T00:00:00Z,2018-08-28T00:00:00Z,feature not yet built
<button type='button' id='lter_bonanza_P6'>view</button>,LTER,Bonanza Creek,P6,NA,NA,65.184791,-147.388939,stream_sampling_point,NA,25995,17,1994-05-12T00:00:00Z,2018-08-14T00:00:00Z,feature not yet built
<button type='button' id='lter_bonanza_PC'>view</button>,LTER,Bonanza Creek,PC,NA,NA,65.1510123,-147.482385,stream_sampling_point,NA,30140,16,2002-05-28T00:00:00Z,2018-08-28T00:00:00Z,feature not yet built
<button type='button' id='lter_bonanza_PJ'>view</button>,LTER,Bonanza Creek,PJ,NA,Poker Creek,65.15154566,-147.4841681,stream_sampling_point,NA,33331,16,2002-05-14T00:00:00Z,2018-08-28T00:00:00Z,feature not yet built
<button type='button' id='lter_hbef_w1'>view</button>,LTER,HBEF,w1,Watershed 1,Stream 1,43.952034,-71.726501,stream_gauge,14.0897397738246,1213162,33,1956-01-01T00:00:00Z,2020-08-22T00:00:00Z,feature not yet built
<button type='button' id='lter_hbef_w2'>view</button>,LTER,HBEF,w2,Watershed 2,Stream 2,43.953358,-71.724174,stream_gauge,17.9266090308577,1224850,33,1956-01-01T00:00:00Z,2020-08-22T00:00:00Z,feature not yet built
<button type='button' id='lter_hbef_w3'>view</button>,LTER,HBEF,w3,Watershed 3,Stream 3,43.954875,-71.722816,stream_gauge,40.2449543953631,1217425,33,1956-01-01T00:00:00Z,2020-08-22T00:00:00Z,feature not yet built
<button type='button' id='lter_hbef_w4'>view</button>,LTER,HBEF,w4,Watershed 4,Stream 4,43.950176,-71.725792,stream_gauge,38.8277892677509,1248021,33,1956-01-01T00:00:00Z,2020-08-22T00:00:00Z,feature not yet built
<button type='button' id='lter_hbef_w5'>view</button>,LTER,HBEF,w5,Watershed 5,Stream 5,43.948845,-71.731918,stream_gauge,20.782604069009,1212129,33,1956-01-01T00:00:00Z,2020-08-22T00:00:00Z,feature not yet built
<button type='button' id='lter_hbef_w6'>view</button>,LTER,HBEF,w6,Watershed 6,Stream 6,43.94994,-71.735641,stream_gauge,14.964518331546,1276676,33,1956-01-01T00:00:00Z,2020-08-22T00:00:00Z,feature not yet built
<button type='button' id='lter_hbef_w7'>view</button>,LTER,HBEF,w7,Watershed 7,Stream 7,43.927509,-71.767075,stream_gauge,76.5978880057436,1030824,33,1956-01-01T00:00:00Z,2020-08-22T00:00:00Z,feature not yet built
<button type='button' id='lter_hbef_w8'>view</button>,LTER,HBEF,w8,Watershed 8,Stream 8,43.929436,-71.759521,stream_gauge,61.0434202787758,1027184,33,1956-01-01T00:00:00Z,2020-08-22T00:00:00Z,feature not yet built
<button type='button' id='lter_hbef_w9'>view</button>,LTER,HBEF,w9,Watershed 9,Stream 9,43.926014,-71.747195,stream_gauge,70.2630617622768,989752,33,1956-01-01T00:00:00Z,2020-08-22T00:00:00Z,feature not yet built
<button type='button' id='lter_hjandrews_GSLOOK'>view</button>,LTER,H. J. Andrews,GSLOOK,?,Lookout Creek,44.2101255022,-122.257145776,stream_gauge,5425.68309458722,870147,27,1949-10-01T00:00:00Z,2019-08-08T00:00:00Z,feature not yet built
<button type='button' id='lter_hjandrews_GSMACK'>view</button>,LTER,H. J. Andrews,GSMACK,?,Mack Creek,44.21944,-122.1674,stream_gauge,579.06121190667,1829488,26,1951-11-21T00:00:00Z,2019-05-22T00:00:00Z,feature not yet built
<button type='button' id='lter_hjandrews_GSMACK'>view</button>,LTER,H. J. Andrews,GSMACK,Mack Creek Gaging Station Standard RG,NA,44.21928,-122.167472,rain_gauge,579.06121190667,1829488,26,1951-11-21T00:00:00Z,2019-05-22T00:00:00Z,feature not yet built
<button type='button' id='lter_hjandrews_GSWS01'>view</button>,LTER,H. J. Andrews,GSWS01,?,Stream 1,44.2073394042,-122.258027394,stream_gauge,98.179909867494,898185,27,1951-11-21T00:00:00Z,2019-10-01T00:00:00Z,feature not yet built
<button type='button' id='lter_hjandrews_GSWS02'>view</button>,LTER,H. J. Andrews,GSWS02,?,Stream 2,44.2120146041,-122.244875675,stream_gauge,59.1765131338648,1200920,27,1951-11-21T00:00:00Z,2019-10-01T00:00:00Z,feature not yet built
<button type='button' id='lter_hjandrews_GSWS03'>view</button>,LTER,H. J. Andrews,GSWS03,?,Stream 3,44.2194395724,-122.24300003,stream_gauge,93.0122661536392,651922,27,1951-11-21T00:00:00Z,2019-10-01T00:00:00Z,feature not yet built
<button type='button' id='lter_hjandrews_GSWS06'>view</button>,LTER,H. J. Andrews,GSWS06,?,Stream 6,44.2615081253,-122.180706523,stream_gauge,12.0161624840476,884745,27,1951-11-21T00:00:00Z,2019-10-01T00:00:00Z,feature not yet built
<button type='button' id='lter_hjandrews_GSWS07'>view</button>,LTER,H. J. Andrews,GSWS07,?,Stream 7,44.2646368258,-122.175264862,stream_gauge,12.4289382059047,887798,27,1951-11-21T00:00:00Z,2019-10-01T00:00:00Z,feature not yet built
<button type='button' id='lter_hjandrews_GSWS08'>view</button>,LTER,H. J. Andrews,GSWS08,?,Stream 8,44.266294258,-122.170792538,stream_gauge,16.0432452391735,1014155,27,1951-11-21T00:00:00Z,2019-10-01T00:00:00Z,feature not yet built
<button type='button' id='lter_hjandrews_GSWS09'>view</button>,LTER,H. J. Andrews,GSWS09,?,Stream 9,44.2011898244,-122.258801374,stream_gauge,7.16819826797768,1032871,27,1951-11-21T00:00:00Z,2019-10-01T00:00:00Z,feature not yet built
<button type='button' id='lter_hjandrews_GSWS10'>view</button>,LTER,H. J. Andrews,GSWS10,?,stream 10,44.2170569856,-122.261055512,stream_gauge,11.4555450985217,1036246,27,1951-11-21T00:00:00Z,2019-10-01T00:00:00Z,feature not yet built
<button type='button' id='lter_hjandrews_GSWSMA'>view</button>,LTER,H. J. Andrews,GSWSMA,?,Mack Creek,44.217,-122.171,stream_gauge,1.08024168624171,642277,27,1951-11-21T00:00:00Z,2019-10-01T00:00:00Z,feature not yet built
<button type='button' id='lter_hjandrews_GSWSMC'>view</button>,LTER,H. J. Andrews,GSWSMC,?,Mack Creek,44.2194360697,-122.16744705,stream_gauge,577.800466448268,636433,27,1951-11-21T00:00:00Z,2019-10-01T00:00:00Z,feature not yet built
<button type='button' id='lter_hjandrews_GSWSMF'>view</button>,LTER,H. J. Andrews,GSWSMF,?,Mack Creek,44.212,-122.16,stream_gauge,373.097955591284,636433,27,1951-11-21T00:00:00Z,2019-10-01T00:00:00Z,feature not yet built
<button type='button' id='lter_konza_HIKX'>view</button>,LTER,Konza,HIKX,Hiking Trail,Kings Creek,39.107,-96.6068,stream_sampling_point,NA,38096,6,1991-04-28T00:00:00Z,2019-01-01T00:00:00Z,feature not yet built
<button type='button' id='lter_konza_HOKN'>view</button>,LTER,Konza,HOKN,Hokanson,HOKN,39.10376,-96.59542,stream_sampling_point,NA,19617,6,1991-04-27T00:00:00Z,2019-01-01T00:00:00Z,feature not yet built
<button type='button' id='lter_konza_KZFL'>view</button>,LTER,Konza,KZFL,Konza Falls,KZFL,39.08763,-96.58482,stream_sampling_point,NA,3187,6,1998-03-03T00:00:00Z,1999-08-19T00:00:00Z,feature not yet built
<button type='button' id='lter_konza_N01B'>view</button>,LTER,Konza,N01B,?,N01B,39.08668,-96.577,stream_gauge,118.945889363743,218670,10,1982-06-14T00:00:00Z,2020-01-01T00:00:00Z,feature not yet built
<button type='button' id='lter_konza_N01B'>view</button>,LTER,Konza,N01B,?,NA,39.0849,-96.571,rain_gauge,118.945889363743,218670,10,1982-06-14T00:00:00Z,2020-01-01T00:00:00Z,feature not yet built
<button type='button' id='lter_konza_N02B'>view</button>,LTER,Konza,N02B,?,N02B,39.0898,-96.5886,stream_gauge,95.980740688174,199306,12,1982-06-14T00:00:00Z,2020-01-01T00:00:00Z,feature not yet built
<button type='button' id='lter_konza_N02B'>view</button>,LTER,Konza,N02B,?,NA,39.0877,-96.5954,rain_gauge,95.980740688174,199306,12,1982-06-14T00:00:00Z,2020-01-01T00:00:00Z,feature not yet built
<button type='button' id='lter_konza_N04D'>view</button>,LTER,Konza,N04D,?,N04D,39.0874,-96.5844,stream_gauge,126.444670122611,119058,12,1982-06-14T00:00:00Z,2020-01-01T00:00:00Z,feature not yet built
<button type='button' id='lter_konza_N20B'>view</button>,LTER,Konza,N20B,?,N20B,39.08858,-96.57654,stream_gauge,76.0179275160646,74612,10,1982-06-14T00:00:00Z,2020-01-01T00:00:00Z,feature not yet built
<button type='button' id='lter_konza_NFKC'>view</button>,LTER,Konza,NFKC,North Fork Kings Creek,NFKC,39.10155,-96.59239,stream_sampling_point,NA,10198,6,1991-04-19T00:00:00Z,2019-01-01T00:00:00Z,feature not yet built
<button type='button' id='lter_konza_SFKC'>view</button>,LTER,Konza,SFKC,South Fork Kings Creek,SFKC,39.10128,-96.59239,stream_sampling_point,NA,11480,6,1991-04-28T00:00:00Z,2019-01-01T00:00:00Z,feature not yet built
<button type='button' id='lter_konza_SHAN'>view</button>,LTER,Konza,SHAN,Shane,SHAN,39.11439,-96.55757,stream_sampling_point,NA,7197,6,2009-05-02T00:00:00Z,2019-10-26T00:00:00Z,feature not yet built
<button type='button' id='lter_konza_TUBE'>view</button>,LTER,Konza,TUBE,Four Tubes,TUBE,39.09873,-96.58944,stream_sampling_point,NA,7760,6,1996-10-08T00:00:00Z,2006-09-14T00:00:00Z,feature not yet built
<button type='button' id='lter_mcmurdo_adams_weir'>view</button>,LTER,McMurdo Dry Valleys,adams_weir,Adams Stream at Weir,Adams Stream,-78.1316680908203,163.75,stream_gauge,NA,805,12,2010-01-29T00:00:00Z,2014-01-30T00:00:00Z,feature not yet built
<button type='button' id='lter_mcmurdo_aiken_f5'>view</button>,LTER,McMurdo Dry Valleys,aiken_f5,Aiken Creek at F5,Aiken Creek,-77.602516,163.2719421,stream_gauge,NA,18386,18,1990-12-04T00:00:00Z,2018-01-27T00:00:00Z,feature not yet built
<button type='button' id='lter_mcmurdo_andrsn_h1'>view</button>,LTER,McMurdo Dry Valleys,andrsn_h1,Andersen Creek at H1,Andersen Creek,-77.622772,162.906357,stream_sampling_point,NA,20320,18,1993-11-20T00:00:00Z,2018-01-28T00:00:00Z,feature not yet built
<button type='button' id='lter_mcmurdo_andrws_mouth'>view</button>,LTER,McMurdo Dry Valleys,andrws_mouth,Andrews Creek at mouth,Andrews Creek,-77.620834,163.044449,stream_sampling_point,NA,868,14,1993-12-12T00:00:00Z,2008-01-15T00:00:00Z,feature not yet built
<button type='button' id='lter_mcmurdo_bartlt_mouth'>view</button>,LTER,McMurdo Dry Valleys,bartlt_mouth,Bartlette Creek at mouth,Bartlette Creek,-77.720833,162.416672,stream_sampling_point,NA,1219,15,1994-01-05T00:00:00Z,2009-12-17T00:00:00Z,feature not yet built
<button type='button' id='lter_mcmurdo_bohner_b5'>view</button>,LTER,McMurdo Dry Valleys,bohner_b5,Bohner B5,Bohner Stream,-77.696302,162.558285,stream_gauge,NA,234,5,2012-12-06T00:00:00Z,2020-12-31T00:00:00Z,feature not yet built
<button type='button' id='lter_mcmurdo_bohnr_lower'>view</button>,LTER,McMurdo Dry Valleys,bohnr_lower,Bohner stream at lower site,Bohner Stream,-77.697334,162.56192,stream_sampling_point,NA,303,12,1994-01-21T00:00:00Z,2014-01-16T00:00:00Z,feature not yet built
<button type='button' id='lter_mcmurdo_bohnr_mouth'>view</button>,LTER,McMurdo Dry Valleys,bohnr_mouth,Bohner Stream at mouth,Bohner Stream,-77.69722,162.541672,stream_sampling_point,NA,2275,14,1998-12-22T00:00:00Z,2014-01-29T00:00:00Z,feature not yet built
<button type='button' id='lter_mcmurdo_bowles_mouth'>view</button>,LTER,McMurdo Dry Valleys,bowles_mouth,Bowles Creek at mouth,Bowles Creek,-77.622223,163.050003,stream_sampling_point,NA,10856,15,1990-11-20T00:00:00Z,2014-01-24T00:00:00Z,feature not yet built
<button type='button' id='lter_mcmurdo_bowles_mouth'>view</button>,LTER,McMurdo Dry Valleys,bowles_mouth,Bowles Creek at mouth,Bowles Creek,-77.622223,163.050003,stream_sampling_point,NA,10856,15,1990-11-20T00:00:00Z,2014-01-24T00:00:00Z,feature not yet built
<button type='button' id='lter_mcmurdo_canada_f1'>view</button>,LTER,McMurdo Dry Valleys,canada_f1,Canada Stream at F1,Canada Stream,-77.613655,163.0547333,stream_gauge,NA,25793,18,1990-11-19T00:00:00Z,2018-01-23T00:00:00Z,feature not yet built
<button type='button' id='lter_mcmurdo_common_c1'>view</button>,LTER,McMurdo Dry Valleys,common_c1,Commonwealth Stream at C1,Commonwealth Stream,-77.563332,163.3808289,stream_gauge,NA,17427,18,1993-11-30T00:00:00Z,2018-02-18T00:00:00Z,feature not yet built
<button type='button' id='lter_mcmurdo_crescent_f8'>view</button>,LTER,McMurdo Dry Valleys,crescent_f8,Crescent Stream at F8,Crescent Stream,-77.619064,163.1844635,stream_gauge,NA,14968,18,1990-12-07T00:00:00Z,2018-01-31T00:00:00Z,feature not yet built
<button type='button' id='lter_mcmurdo_delta_f10'>view</button>,LTER,McMurdo Dry Valleys,delta_f10,Delta Stream at F10,Delta Stream,-77.624619,163.1084442,stream_gauge,NA,16421,18,1990-11-25T00:00:00Z,2018-01-28T00:00:00Z,feature not yet built
<button type='button' id='lter_mcmurdo_garwood_blwconf'>view</button>,LTER,McMurdo Dry Valleys,garwood_blwconf,Garwood River below confluence,Garwood River,-78.019447,164.066666,stream_sampling_point,NA,231,11,2009-12-31T00:00:00Z,2010-01-20T00:00:00Z,feature not yet built
<button type='button' id='lter_mcmurdo_garwood_flats'>view</button>,LTER,McMurdo Dry Valleys,garwood_flats,Garwood River at flats,Garwood River,-78.020836,164.016663,stream_sampling_point,NA,231,11,2009-12-31T00:00:00Z,2010-01-20T00:00:00Z,feature not yet built
<button type='button' id='lter_mcmurdo_green_f9'>view</button>,LTER,McMurdo Dry Valleys,green_f9,Green Creek at F9,Green Creek,-77.624099731445,163.059753417969,stream_gauge,NA,23275,18,1990-11-23T00:00:00Z,2020-01-24T00:00:00Z,feature not yet built
<button type='button' id='lter_mcmurdo_harnish_f11'>view</button>,LTER,McMurdo Dry Valleys,harnish_f11,Harnish Creek at F11,Harnish Creek,-77.621246337891,163.269515991211,stream_gauge,NA,1535,17,1996-12-25T00:00:00Z,2016-02-29T00:00:00Z,feature not yet built
<button type='button' id='lter_mcmurdo_harnish_f7'>view</button>,LTER,McMurdo Dry Valleys,harnish_f7,Harnish Creek at F7,Harnish Creek,-77.608329772949,163.232772827148,stream_gauge,NA,9470,18,1995-12-28T00:00:00Z,2018-01-17T00:00:00Z,feature not yet built
<button type='button' id='lter_mcmurdo_house_h2'>view</button>,LTER,McMurdo Dry Valleys,house_h2,House Stream at H2,House Stream,-77.6429824829102,162.741317749023,stream_gauge,NA,6848,18,1993-12-02T00:00:00Z,2020-12-31T00:00:00Z,feature not yet built
<button type='button' id='lter_mcmurdo_huey_f2'>view</button>,LTER,McMurdo Dry Valleys,huey_f2,Huey Creek at F2,Huey Creek,-77.6048965454102,163.127410888672,stream_gauge,NA,5040,17,1990-11-25T00:00:00Z,2020-12-31T00:00:00Z,feature not yet built
<button type='button' id='lter_mcmurdo_lawson_b3'>view</button>,LTER,McMurdo Dry Valleys,lawson_b3,Lawson Creek at B3,Lawson Creek,-77.7227783203125,162.268051147461,stream_gauge,NA,9357,18,1993-12-03T00:00:00Z,2020-12-31T00:00:00Z,feature not yet built
<button type='button' id='lter_mcmurdo_lostseal_f3'>view</button>,LTER,McMurdo Dry Valleys,lostseal_f3,Lost Seal Stream at F3,Lost Seal Stream,-77.595268,163.2444,stream_gauge,NA,21611,18,1990-11-27T00:00:00Z,2018-02-02T00:00:00Z,feature not yet built
<button type='button' id='lter_mcmurdo_lyons_b4'>view</button>,LTER,McMurdo Dry Valleys,lyons_b4,Lyons Creek at B4,Lyons Creek,-77.727776,162.274994,stream_sampling_point,NA,6106,15,1993-12-03T00:00:00Z,2014-01-29T00:00:00Z,feature not yet built
<button type='button' id='lter_mcmurdo_lyons_trib'>view</button>,LTER,McMurdo Dry Valleys,lyons_trib,Lyons tributary at confluence,Lyons Creek Tributary,-77.720001,162.270004,stream_sampling_point,NA,108,13,2010-01-28T00:00:00Z,2014-01-29T00:00:00Z,feature not yet built
<button type='button' id='lter_mcmurdo_mariah_mouth'>view</button>,LTER,McMurdo Dry Valleys,mariah_mouth,Mariah Creek at mouth,Mariah Creek,-77.623611,163.047226,stream_sampling_point,NA,3949,15,1990-11-23T00:00:00Z,2014-01-24T00:00:00Z,feature not yet built
<button type='button' id='lter_mcmurdo_mason_mouth'>view</button>,LTER,McMurdo Dry Valleys,mason_mouth,Mason Creek at Mouth,Mason Creek,-77.729164,162.274994,stream_sampling_point,NA,759,15,1995-01-07T00:00:00Z,2008-01-04T00:00:00Z,feature not yet built
<button type='button' id='lter_mcmurdo_mckay_mouth'>view</button>,LTER,McMurdo Dry Valleys,mckay_mouth,McKay Creek at mouth,McKay Creek,-77.644722,162.747223,stream_sampling_point,NA,3561,15,1994-01-11T00:00:00Z,2013-01-11T00:00:00Z,feature not yet built
<button type='button' id='lter_mcmurdo_mcknight_mouth'>view</button>,LTER,McMurdo Dry Valleys,mcknight_mouth,McKnight Creek at mouth,McKnight Creek,-77.599724,163.264725,stream_sampling_point,NA,5558,15,1990-11-28T00:00:00Z,2014-01-20T00:00:00Z,feature not yet built
<button type='button' id='lter_mcmurdo_onyx_lwright'>view</button>,LTER,McMurdo Dry Valleys,onyx_lwright,Onyx River at Lower Wright,Onyx River,-77.444534,162.6535339,stream_gauge,NA,16421,18,1972-12-04T00:00:00Z,2018-02-05T00:00:00Z,feature not yet built
<button type='button' id='lter_mcmurdo_onyx_vnda'>view</button>,LTER,McMurdo Dry Valleys,onyx_vnda,Onyx River at Lake Vanda,Onyx River,-77.52343,161.6966248,stream_gauge,NA,15456,18,1969-12-05T00:00:00Z,2018-02-07T00:00:00Z,feature not yet built
<button type='button' id='lter_mcmurdo_priscu_b1'>view</button>,LTER,McMurdo Dry Valleys,priscu_b1,Priscu Stream at B1,Priscu Stream,-77.6999969482422,162.534729003906,stream_gauge,NA,7684,18,1993-12-15T00:00:00Z,2020-12-31T00:00:00Z,feature not yet built
<button type='button' id='lter_mcmurdo_red_bfalls'>view</button>,LTER,McMurdo Dry Valleys,red_bfalls,Red River at Blood Falls,Red River,-77.723335,162.268051,stream_sampling_point,NA,6640,15,1993-12-03T00:00:00Z,2014-01-06T00:00:00Z,feature not yet built
<button type='button' id='lter_mcmurdo_santafe_b2'>view</button>,LTER,McMurdo Dry Valleys,santafe_b2,Santa Fe Stream at B2,Santa Fe Stream,-77.7230529785156,162.266662597656,stream_gauge,NA,11033,18,1993-12-03T00:00:00Z,2020-02-19T00:00:00Z,feature not yet built
<button type='button' id='lter_mcmurdo_sharp_mouth'>view</button>,LTER,McMurdo Dry Valleys,sharp_mouth,Sharp Creek at mouth,Sharp Creek,-77.722221,162.247223,stream_sampling_point,NA,1822,15,1994-01-05T00:00:00Z,2014-01-29T00:00:00Z,feature not yet built
<button type='button' id='lter_mcmurdo_vguerard_f6'>view</button>,LTER,McMurdo Dry Valleys,vguerard_f6,Von Guerard Stream at F6,Von Guerard Stream,-77.608200073242,163.253997802734,stream_gauge,NA,14224,18,1990-12-04T00:00:00Z,2018-01-08T00:00:00Z,feature not yet built
<button type='button' id='lter_mcmurdo_vguerard_upper'>view</button>,LTER,McMurdo Dry Valleys,vguerard_upper,Von Guerard stream at upper site,Von Guerard Stream,-77.634384,163.306305,stream_sampling_point,NA,2133,15,1994-01-10T00:00:00Z,2014-01-19T00:00:00Z,feature not yet built
<button type='button' id='lter_mcmurdo_vincent_mouth'>view</button>,LTER,McMurdo Dry Valleys,vincent_mouth,Vincent Creek at mouth,Vincent Creek,-77.720276,162.425003,stream_sampling_point,NA,890,14,1994-12-28T00:00:00Z,2009-12-17T00:00:00Z,feature not yet built
<button type='button' id='lter_mcmurdo_wharton_mouth'>view</button>,LTER,McMurdo Dry Valleys,wharton_mouth,Wharton Creek at mouth,Wharton Creek,-77.645836,162.747223,stream_sampling_point,NA,4400,15,1994-01-11T00:00:00Z,2013-01-11T00:00:00Z,feature not yet built
<button type='button' id='lter_niwot_ALBION'>view</button>,LTER,Niwot,ALBION,Albion Camp,Albion,40.04287468,-105.592296,stream_gauge,715.106665095472,347296,30,1952-10-01T00:00:00Z,2020-09-30T00:00:00Z,feature not yet built
<button type='button' id='lter_niwot_ALBION_INLET'>view</button>,LTER,Niwot,ALBION_INLET,Lake Albion Inlet,Lake Albion Inlet,40.047178,-105.607123,stream_sampling_point,NA,88848,30,1984-06-01T00:00:00Z,2004-11-12T00:00:00Z,feature not yet built
<button type='button' id='lter_niwot_FLUME'>view</button>,LTER,Niwot,FLUME,Watershed Flume,NA,40.01368597,-105.5578493,stream_sampling_point,NA,39291,28,2005-06-17T00:00:00Z,2017-04-12T00:00:00Z,feature not yet built
<button type='button' id='lter_niwot_GREEN1'>view</button>,LTER,Niwot,GREEN1,Green Lake 1 Outlet,Green Lake 1,40.049746,-105.605309,stream_sampling_point,NA,58046,30,1985-06-07T00:00:00Z,2010-10-08T00:00:00Z,feature not yet built
<button type='button' id='lter_niwot_GREEN4'>view</button>,LTER,Niwot,GREEN4,Green Lake 4 Outlet,Green Lake 4,40.055742,-105.617065,stream_gauge,228.789002038879,277223,32,1952-10-01T00:00:00Z,2020-09-30T00:00:00Z,feature not yet built
<button type='button' id='lter_niwot_GREEN5'>view</button>,LTER,Niwot,GREEN5,Green Lake 5 Outlet,Green Lake 5,40.05367068,-105.6279131,stream_sampling_point,NA,95160,30,1984-06-01T00:00:00Z,2018-09-26T00:00:00Z,feature not yet built
<button type='button' id='lter_niwot_MARTINELLI'>view</button>,LTER,Niwot,MARTINELLI,Martinelli Basin,NA,40.05060202,-105.595805,stream_gauge,16.1700422112186,166422,32,1952-10-01T00:00:00Z,2019-12-31T00:00:00Z,feature not yet built
<button type='button' id='lter_niwot_NAVAJO'>view</button>,LTER,Niwot,NAVAJO,Navajo meadow,NA,40.05195303,-105.6367,stream_sampling_point,NA,77214,30,1984-06-29T00:00:00Z,2018-09-21T00:00:00Z,feature not yet built
<button type='button' id='lter_niwot_ROCK_GLACIER'>view</button>,LTER,Niwot,ROCK_GLACIER,Green Lake 5 Rock Glacier,NA,40.05213501,-105.6289841,stream_sampling_point,NA,46759,30,1998-07-17T00:00:00Z,2018-09-26T00:00:00Z,feature not yet built
<button type='button' id='lter_niwot_SADDLE'>view</button>,LTER,Niwot,SADDLE,Saddle Stream,Saddle Stream,40.04903177,-105.5923174,stream_gauge,19.9508915072608,111689,32,1952-10-01T00:00:00Z,2020-09-24T00:00:00Z,feature not yet built
<button type='button' id='lter_niwot_SADDLE_007'>view</button>,LTER,Niwot,SADDLE_007,Saddle Stream 007,Saddle Stream 007,40.05485646,-105.5901358,stream_sampling_point,NA,51886,30,1994-05-18T00:00:00Z,2018-06-21T00:00:00Z,feature not yet built
<button type='button' id='lter_niwot_SODDIE'>view</button>,LTER,Niwot,SODDIE,Soddie stream,Soddie stream,40.047778,-105.570833,stream_sampling_point,NA,17202,30,1999-06-05T00:00:00Z,2013-10-16T00:00:00Z,feature not yet built
<button type='button' id='lter_plum_bear_meadow'>view</button>,LTER,Plum Island Ecosystem,bear_meadow,"Cedar Swamp (wetland landuse), Bear Meadow Brook, Reading, MA",Bear Meadow Brook,42.5495,-71.0909,stream_gauge,19.7515524396511,58861,20,2000-03-27T00:00:00Z,2020-01-01T00:00:00Z,feature not yet built
<button type='button' id='lter_plum_cart_creek'>view</button>,LTER,Plum Island Ecosystem,cart_creek,"Cart Creek (forest landuse), Newbury, MA",Cart Creek,42.7692,-70.9165,stream_gauge,240.109281119725,99786,23,2000-03-27T00:00:00Z,2020-01-01T00:00:00Z,feature not yet built
<button type='button' id='lter_plum_egypt_river'>view</button>,LTER,Plum Island Ecosystem,egypt_river,"Egypt River, Rt 133, Ipswich, MA",Egypt River,42.698162078857,-70.868286132812,stream_sampling_point,NA,43233,12,1999-02-25T00:00:00Z,2017-12-09T00:00:00Z,feature not yet built
<button type='button' id='lter_plum_fish_brook'>view</button>,LTER,Plum Island Ecosystem,fish_brook,"Fish Brook, Boxford, MA",Fish Brook,42.65831,-71.004821,stream_sampling_point,NA,3102,9,2001-06-22T00:00:00Z,2002-12-04T00:00:00Z,feature not yet built
<button type='button' id='lter_plum_governors_academy'>view</button>,LTER,Plum Island Ecosystem,governors_academy,"meteorological station at Governor's Academy, Byfield, MA",NA,42.751484,-70.902407,rain_gauge,NA,2472,1,2000-03-27T00:00:00Z,2007-01-01T00:00:00Z,feature not yet built
<button type='button' id='lter_plum_ipswich_dam'>view</button>,LTER,Plum Island Ecosystem,ipswich_dam,Ipswich River Sylvania Dam,Ispwich River,42.677543640137,-70.837684631348,stream_sampling_point,NA,93948,23,1993-09-21T00:00:00Z,2019-07-29T00:00:00Z,feature not yet built
<button type='button' id='lter_plum_little_river'>view</button>,LTER,Plum Island Ecosystem,little_river,"Little River, Newbury, MA",Little River,42.800399780273,-70.883277893066,stream_sampling_point,NA,11,11,1999-02-25T00:00:00Z,1999-02-25T00:00:00Z,feature not yet built
<button type='button' id='lter_plum_mbl_marshview'>view</button>,LTER,Plum Island Ecosystem,mbl_marshview,"meteorological station at MBL, Marshview Farm, Newbury, MA",NA,42.756971,-70.891366,rain_gauge,NA,3961,1,2007-01-01T00:00:00Z,2020-01-01T00:00:00Z,feature not yet built
<button type='button' id='lter_plum_mill_river'>view</button>,LTER,Plum Island Ecosystem,mill_river,"Mill River, Newbury, MA",Mill River,42.739360809326,-70.900192260742,stream_sampling_point,NA,11,11,1999-02-25T00:00:00Z,1999-02-25T00:00:00Z,feature not yet built
<button type='button' id='lter_plum_parker_dam'>view</button>,LTER,Plum Island Ecosystem,parker_dam,Parker River Central St Dam,Parker River,42.750007629395,-70.929214477539,stream_sampling_point,NA,95057,22,1993-06-19T00:00:00Z,2019-07-29T00:00:00Z,feature not yet built
<button type='button' id='lter_plum_saw_mill_brook'>view</button>,LTER,Plum Island Ecosystem,saw_mill_brook,"Saw Mill Brook (urban landuse), Burlington, MA",Saw Mill Brook,42.523601531982,-71.184997558594,stream_gauge,339.127745610234,96685,24,2000-03-27T00:00:00Z,2020-01-01T00:00:00Z,feature not yet built
<button type='button' id='lter_plum_upper_ipswich'>view</button>,LTER,Plum Island Ecosystem,upper_ipswich,Ipswich River at N. Reading site,Ispwich River,42.5625662,-71.1093305,stream_gauge,4726.48936172005,11756,11,2000-03-27T00:00:00Z,2020-01-01T00:00:00Z,feature not yet built
<button type='button' id='lter_santa_barbara_AB00'>view</button>,LTER,Santa Barbara,AB00,"Arroyo Burro, Arroyo Burro at Cliff Drive",Arroyo Burro,34.40505027,-119.74021,stream_gauge,2336.62239240964,61913,12,2000-10-01T00:00:00Z,2018-10-01T00:00:00Z,feature not yet built
<button type='button' id='lter_santa_barbara_AT07'>view</button>,LTER,Santa Barbara,AT07,"Atascadero Creek, Atascadero at Puente",Atascadero Creek,34.43226,-119.78414,stream_gauge,5.97553227657677,23828,12,2000-10-01T00:00:00Z,2017-10-01T00:00:00Z,feature not yet built
<button type='button' id='lter_santa_barbara_BaronRanch262'>view</button>,LTER,Santa Barbara,BaronRanch262,Baron Ranch,NA,34.48333333,-120.1291667,rain_gauge,NA,5696,1,2000-10-01T00:00:00Z,2017-09-01T00:00:00Z,feature not yet built
<button type='button' id='lter_santa_barbara_BC02'>view</button>,LTER,Santa Barbara,BC02,Bell Canyon Creek at Winchester Canyon Road culvert,Bell Canyon Creek,34.43854,-119.90563,stream_gauge,1514.06006854324,43558,9,2000-10-01T00:00:00Z,2018-10-01T00:00:00Z,feature not yet built
<button type='button' id='lter_santa_barbara_BotanicGarden321'>view</button>,LTER,Santa Barbara,BotanicGarden321,Botanic Garden,NA,34.45388,-119.70694,rain_gauge,NA,3997,1,2005-12-01T00:00:00Z,2017-09-01T00:00:00Z,feature not yet built
<button type='button' id='lter_santa_barbara_Carpinteria208'>view</button>,LTER,Santa Barbara,Carpinteria208,Carpinteria Fire Station,NA,34.4,-119.5166667,rain_gauge,NA,6180,1,2000-10-01T00:00:00Z,2017-09-01T00:00:00Z,feature not yet built
<button type='button' id='lter_santa_barbara_CarpinteriaUSFS383'>view</button>,LTER,Santa Barbara,CarpinteriaUSFS383,Carpinteria US Forest Service Office,NA,34.40194,-119.49138,rain_gauge,NA,2224,1,2011-08-01T00:00:00Z,2017-09-01T00:00:00Z,feature not yet built
<button type='button' id='lter_santa_barbara_CaterWTP229'>view</button>,LTER,Santa Barbara,CaterWTP229,Cater Water Treatment Plant,NA,34.45416667,-119.7302778,rain_gauge,NA,5181,1,2000-10-01T00:00:00Z,2017-09-01T00:00:00Z,feature not yet built
<button type='button' id='lter_santa_barbara_ColdSprings210'>view</button>,LTER,Santa Barbara,ColdSprings210,Cold Springs Basin,NA,34.45,-119.6166667,rain_gauge,NA,5783,1,2001-02-01T00:00:00Z,2017-09-01T00:00:00Z,feature not yet built
<button type='button' id='lter_santa_barbara_CP00'>view</button>,LTER,Santa Barbara,CP00,"Carpinteria Creek, 8th St Foot Bridge",Carpinteria Creek,34.39301245,-119.51413,stream_gauge,NA,1804,1,2001-10-24T00:00:00Z,2006-10-01T00:00:00Z,feature not yet built
<button type='button' id='lter_santa_barbara_CP201'>view</button>,LTER,Santa Barbara,CP201,Carpinteria at Veddar's Ranch,NA,34.42374,-119.48104,rain_gauge,NA,4996,1,2002-10-01T00:00:00Z,2016-06-04T00:00:00Z,feature not yet built
<button type='button' id='lter_santa_barbara_DosPueblos226'>view</button>,LTER,Santa Barbara,DosPueblos226,Dos Pueblos Ranch,NA,34.44666667,-119.9516667,rain_gauge,NA,5694,1,2000-10-01T00:00:00Z,2017-09-01T00:00:00Z,feature not yet built
<button type='button' id='lter_santa_barbara_DoultonTunnel231'>view</button>,LTER,Santa Barbara,DoultonTunnel231,Doulton Tunnel,NA,34.45694444,-119.5638889,rain_gauge,NA,5760,1,2000-10-01T00:00:00Z,2017-09-01T00:00:00Z,feature not yet built
<button type='button' id='lter_santa_barbara_DV01'>view</button>,LTER,Santa Barbara,DV01,Devereaux Creek at Devereaux Slough inflow,Devereaux Creek,34.41761,-119.87406,stream_gauge,827.431000714369,20911,9,2000-10-01T00:00:00Z,2017-10-01T00:00:00Z,feature not yet built
<button type='button' id='lter_santa_barbara_EdisonTrail252'>view</button>,LTER,Santa Barbara,EdisonTrail252,Edison Trail,NA,34.44277778,-119.5077778,rain_gauge,NA,5421,1,2001-10-31T00:00:00Z,2017-09-01T00:00:00Z,feature not yet built
<button type='button' id='lter_santa_barbara_EL201'>view</button>,LTER,Santa Barbara,EL201,El Capitan at State Beach,NA,34.462283,-120.024883,rain_gauge,NA,3940,1,2004-10-01T00:00:00Z,2016-07-13T00:00:00Z,feature not yet built
<button type='button' id='lter_santa_barbara_EL202'>view</button>,LTER,Santa Barbara,EL202,El Capitan at Upper Bill Wallace Trail,NA,34.496117,-120.00785,rain_gauge,NA,2809,1,2004-10-01T00:00:00Z,2017-01-21T00:00:00Z,feature not yet built
<button type='button' id='lter_santa_barbara_ElDeseo255'>view</button>,LTER,Santa Barbara,ElDeseo255,El Deseo,NA,34.49166667,-119.6958333,rain_gauge,NA,5816,1,2000-10-01T00:00:00Z,2017-09-01T00:00:00Z,feature not yet built
<button type='button' id='lter_santa_barbara_FK00'>view</button>,LTER,Santa Barbara,FK00,"Franklin Creek, Carpinteria Ave",Franklin Creek,34.40164787,-119.52145,stream_gauge,697.006548219606,8387,2,2000-10-01T00:00:00Z,2017-10-01T00:00:00Z,feature not yet built
<button type='button' id='lter_santa_barbara_GaviotaSP301'>view</button>,LTER,Santa Barbara,GaviotaSP301,Gaviota State Park,NA,34.47245,-120.22944,rain_gauge,NA,2163,1,2011-10-01T00:00:00Z,2017-09-01T00:00:00Z,feature not yet built
<button type='button' id='lter_santa_barbara_GB201'>view</button>,LTER,Santa Barbara,GB201,Gobernador at Veddar's Ranch,NA,34.4245,-119.47089,rain_gauge,NA,3596,1,2002-10-01T00:00:00Z,2017-10-01T00:00:00Z,feature not yet built
<button type='button' id='lter_santa_barbara_GlenAnnieCanyon309'>view</button>,LTER,Santa Barbara,GlenAnnieCanyon309,Glen Annie Canyon,NA,34.475,-119.8833,rain_gauge,NA,1463,1,2012-09-01T00:00:00Z,2017-09-01T00:00:00Z,feature not yet built
<button type='button' id='lter_santa_barbara_GoletaFireStation440'>view</button>,LTER,Santa Barbara,GoletaFireStation440,Goleta Fire Station,NA,34.443055,-119.85361,rain_gauge,NA,2912,1,2009-04-01T00:00:00Z,2017-09-01T00:00:00Z,feature not yet built
<button type='button' id='lter_santa_barbara_GoletaRdYard211'>view</button>,LTER,Santa Barbara,GoletaRdYard211,Santa Barbara County Road Yard,NA,34.45,-119.7666667,rain_gauge,NA,6180,1,2000-10-01T00:00:00Z,2017-09-01T00:00:00Z,feature not yet built
<button type='button' id='lter_santa_barbara_GoletaWaterDistrict334'>view</button>,LTER,Santa Barbara,GoletaWaterDistrict334,Goleta Water District,NA,34.436944,-119.7855,rain_gauge,NA,2801,1,2010-01-01T00:00:00Z,2017-09-01T00:00:00Z,feature not yet built
<button type='button' id='lter_santa_barbara_GV01'>view</button>,LTER,Santa Barbara,GV01,"Gaviota, Gaviota at Hwy 101 South Rest Stop Exit","Gaviota, Gaviota",34.4855,-120.22917,stream_gauge,4963.38328913674,52765,12,2000-10-01T00:00:00Z,2017-10-01T00:00:00Z,feature not yet built
<button type='button' id='lter_santa_barbara_GV201'>view</button>,LTER,Santa Barbara,GV201,Gaviota at Hwy 101 N rest stop,NA,34.48011,-120.22917,rain_gauge,NA,732,1,2004-10-01T00:00:00Z,2007-10-01T00:00:00Z,feature not yet built
<button type='button' id='lter_santa_barbara_GV202'>view</button>,LTER,Santa Barbara,GV202,Gaviota at Las Cruces School,NA,34.50765,-120.22861,rain_gauge,NA,5441,1,2002-10-01T00:00:00Z,2017-10-01T00:00:00Z,feature not yet built
<button type='button' id='lter_santa_barbara_HO00'>view</button>,LTER,Santa Barbara,HO00,"Hondo, Arroyo Hondo at Upstream Side of 101 Bridge",Arroyo Burro,34.4752858,-120.14122,stream_gauge,1116.44772098717,47939,12,2000-10-01T00:00:00Z,2018-10-01T00:00:00Z,feature not yet built
<button type='button' id='lter_santa_barbara_HO201'>view</button>,LTER,Santa Barbara,HO201,Arroyo Hondo at East Avocado Orchard,NA,34.47651,-120.14064,rain_gauge,NA,4628,1,2002-10-01T00:00:00Z,2016-07-15T00:00:00Z,feature not yet built
<button type='button' id='lter_santa_barbara_HO202'>view</button>,LTER,Santa Barbara,HO202,Arroyo Hondo at Upper Outlaw Trail,NA,34.49059,-120.13678,rain_gauge,NA,5021,1,2003-01-09T00:00:00Z,2017-02-05T00:00:00Z,feature not yet built
<button type='button' id='lter_santa_barbara_KTYD227'>view</button>,LTER,Santa Barbara,KTYD227,NA,NA,34.422301,-119.691716,rain_gauge,NA,5615,1,2000-10-01T00:00:00Z,2017-09-01T00:00:00Z,feature not yet built
<button type='button' id='lter_santa_barbara_MC00'>view</button>,LTER,Santa Barbara,MC00,Mission at Montecito St,Mission Creek,34.41307303,-119.69499,stream_gauge,3014.85694999166,69313,12,2000-10-01T00:00:00Z,2018-10-01T00:00:00Z,feature not yet built
<button type='button' id='lter_santa_barbara_MC06'>view</button>,LTER,Santa Barbara,MC06,Mission at Rocky Nook. Site established by the USGS,Mission Creek,34.44072,-119.71244,stream_gauge,1673.43863810855,29308,12,1997-12-08T00:00:00Z,2020-12-19T00:00:00Z,feature not yet built
<button type='button' id='lter_santa_barbara_Montecito325'>view</button>,LTER,Santa Barbara,Montecito325,Montecito,NA,34.429444,-119.640555,rain_gauge,NA,2893,1,2009-10-01T00:00:00Z,2017-09-01T00:00:00Z,feature not yet built
<button type='button' id='lter_santa_barbara_ON02'>view</button>,LTER,Santa Barbara,ON02,San Onofre Creek at Highway 101 North culvert,San Onofre Creek,34.472,-120.28885,stream_gauge,401.631791610324,25977,12,2000-10-01T00:00:00Z,2017-10-01T00:00:00Z,feature not yet built
<button type='button' id='lter_santa_barbara_RanchoSJ389'>view</button>,LTER,Santa Barbara,RanchoSJ389,Rancho San Julian,NA,34.531666,-120.33777,rain_gauge,NA,4354,1,2005-10-01T00:00:00Z,2017-09-01T00:00:00Z,feature not yet built
<button type='button' id='lter_santa_barbara_RefugioPass429'>view</button>,LTER,Santa Barbara,RefugioPass429,Refugio Pass,NA,34.53,-120.0922,rain_gauge,NA,5816,1,2000-10-01T00:00:00Z,2017-09-01T00:00:00Z,feature not yet built
<button type='button' id='lter_santa_barbara_RG01'>view</button>,LTER,Santa Barbara,RG01,Refugio at Hwy 101 Bridge,Refugio Creek,34.46573164,-120.06932,stream_gauge,2097.67031345155,57112,12,2000-10-01T00:00:00Z,2018-10-01T00:00:00Z,feature not yet built
<button type='button' id='lter_santa_barbara_RG201'>view</button>,LTER,Santa Barbara,RG201,Refugio at State Park,NA,34.461853,-120.076261,rain_gauge,NA,3241,1,2004-10-01T00:00:00Z,2016-10-29T00:00:00Z,feature not yet built
<button type='button' id='lter_santa_barbara_RG202'>view</button>,LTER,Santa Barbara,RG202,Lower Aguacitos Ranch,NA,34.49122,-120.07483,rain_gauge,NA,5309,1,2002-11-20T00:00:00Z,2017-10-01T00:00:00Z,feature not yet built
<button type='button' id='lter_santa_barbara_RG203'>view</button>,LTER,Santa Barbara,RG203,Refugio at Upper Aguacitos Ranch,NA,34.50856,-120.07947,rain_gauge,NA,4700,1,2002-11-20T00:00:00Z,2017-10-01T00:00:00Z,feature not yet built
<button type='button' id='lter_santa_barbara_RG204'>view</button>,LTER,Santa Barbara,RG204,Refugio at Rancho La Scherpa,NA,34.5303,-120.05636,rain_gauge,NA,4887,1,2002-10-01T00:00:00Z,2017-03-23T00:00:00Z,feature not yet built
<button type='button' id='lter_santa_barbara_RN01'>view</button>,LTER,Santa Barbara,RN01,"Rincon Creek, Hwy 101 Culvert, North",Rincon Creek,34.3773,-119.47794,stream_gauge,NA,7324,2,2000-10-01T00:00:00Z,2017-10-01T00:00:00Z,feature not yet built
<button type='button' id='lter_santa_barbara_RS02'>view</button>,LTER,Santa Barbara,RS02,Rattlesnake at Las Canoas Bridge,Rattlesnake Creek,34.45761111,-119.69222,stream_gauge,549.919864558674,55674,12,2000-10-01T00:00:00Z,2018-10-01T00:00:00Z,feature not yet built
<button type='button' id='lter_santa_barbara_SanMarcosPass212'>view</button>,LTER,Santa Barbara,SanMarcosPass212,San Marcos Pass USFS Stn,NA,34.51111111,-119.8238889,rain_gauge,NA,6093,1,2000-10-01T00:00:00Z,2017-09-01T00:00:00Z,feature not yet built
<button type='button' id='lter_santa_barbara_SBCaltrans335'>view</button>,LTER,Santa Barbara,SBCaltrans335,Santa Barbara Caltrans Office,NA,34.438611,-119.755,rain_gauge,NA,2528,1,2010-10-01T00:00:00Z,2017-09-01T00:00:00Z,feature not yet built
<button type='button' id='lter_santa_barbara_SBEngBldg234'>view</button>,LTER,Santa Barbara,SBEngBldg234,Santa Barbara Co. FCD Eng. Bldg.,NA,34.41666667,-119.7,rain_gauge,NA,4601,1,2002-12-31T00:00:00Z,2017-09-01T00:00:00Z,feature not yet built
<button type='button' id='lter_santa_barbara_SM01'>view</button>,LTER,Santa Barbara,SM01,"Santa Monica Creek, Via Real",Santa Monica Creek,34.40479765,-119.52869,stream_gauge,974.962907659924,7663,2,2000-10-01T00:00:00Z,2017-10-01T00:00:00Z,feature not yet built
<button type='button' id='lter_santa_barbara_SM04'>view</button>,LTER,Santa Barbara,SM04,Santa Monica at Scoop,Santa Monica Creek,34.41898512,-119.52701,stream_gauge,926.920942848895,6944,2,2000-10-01T00:00:00Z,2017-10-01T00:00:00Z,feature not yet built
<button type='button' id='lter_santa_barbara_SP02'>view</button>,LTER,Santa Barbara,SP02,"San Pedro Creek at Stow Canyon Park, Goleta",San Pedro Creek,34.44861,-119.84028,stream_gauge,908.028483525354,17344,9,2000-10-01T00:00:00Z,2020-12-19T00:00:00Z,feature not yet built
<button type='button' id='lter_santa_barbara_StanwoodFS228'>view</button>,LTER,Santa Barbara,StanwoodFS228,Stanwood Fire Station,NA,34.45,-119.6833333,rain_gauge,NA,5772,1,2000-10-01T00:00:00Z,2017-09-01T00:00:00Z,feature not yet built
<button type='button' id='lter_santa_barbara_TE03'>view</button>,LTER,Santa Barbara,TE03,"Tecolotito Creek, Hollister Road",Tecolotito Creek,34.43055,-119.85762,stream_gauge,NA,1031,1,2003-10-01T00:00:00Z,2006-07-27T00:00:00Z,feature not yet built
<button type='button' id='lter_santa_barbara_TecoloteCanyon280'>view</button>,LTER,Santa Barbara,TecoloteCanyon280,Tecolote Canyon,NA,34.520823,-119.9088,rain_gauge,NA,3258,1,2008-10-01T00:00:00Z,2017-09-01T00:00:00Z,feature not yet built
<button type='button' id='lter_santa_barbara_TO02'>view</button>,LTER,Santa Barbara,TO02,"Tecolote Creek, at Vereda Galeria, Goleta",Tecolote Creek,34.440614,-119.917915,stream_sampling_point,NA,1722,6,2004-10-14T00:00:00Z,2008-02-10T00:00:00Z,feature not yet built
<button type='button' id='lter_santa_barbara_TroutClub242'>view</button>,LTER,Santa Barbara,TroutClub242,Trout Club,NA,34.48972222,-119.8,rain_gauge,NA,5413,1,2000-10-01T00:00:00Z,2017-09-01T00:00:00Z,feature not yet built
<button type='button' id='lter_santa_barbara_UCSB200'>view</button>,LTER,Santa Barbara,UCSB200,UCSB-200,NA,34.415,-119.84611111,rain_gauge,NA,6180,1,2000-10-01T00:00:00Z,2017-09-01T00:00:00Z,feature not yet built
<button type='button' id='neon_neon_ARIK'>view</button>,NEON,NEON,ARIK,Arikaree River,Arikaree River,39.75825,-102.4471,stream_gauge,263229.722553434,67472,44,2012-02-01T00:00:00Z,2020-12-01T00:00:00Z,feature not yet built
<button type='button' id='neon_neon_BIGC'>view</button>,NEON,NEON,BIGC,Upper Big Creek,Upper Big Creek,37.058,-119.256,stream_gauge,1090.09223695882,25046,41,2018-02-20T00:00:00Z,2020-12-01T00:00:00Z,feature not yet built
<button type='button' id='neon_neon_BLDE'>view</button>,NEON,NEON,BLDE,Blacktail Deer Creek,Blacktail Deer Creek,44.95011,-110.58715,stream_gauge,3783.90054300736,25979,40,2018-03-07T00:00:00Z,2020-12-01T00:00:00Z,feature not yet built
<button type='button' id='neon_neon_BLUE'>view</button>,NEON,NEON,BLUE,Blue River,Blue River,34.44422,-96.6242,stream_gauge,32215.0462024722,39951,44,2017-01-31T00:00:00Z,2020-08-16T00:00:00Z,feature not yet built
<button type='button' id='neon_neon_BLWA'>view</button>,NEON,NEON,BLWA,Black Warrior River near Dead Lake,Black Warrior River near Dead Lake,32.54153,-87.79815,stream_gauge,1617163.69940953,38825,39,2016-10-05T00:00:00Z,2020-10-16T00:00:00Z,feature not yet built
<button type='button' id='neon_neon_CARI'>view</button>,NEON,NEON,CARI,"Caribou Creek, Caribou-Poker Creeks Research Watershed","Caribou Creek, Caribou-Poker Creeks Research Watershed",65.15306,-147.50246,stream_gauge,3104.73890138105,27166,40,2016-07-20T00:00:00Z,2020-10-22T00:00:00Z,feature not yet built
<button type='button' id='neon_neon_COMO'>view</button>,NEON,NEON,COMO,Como Creek,Como Creek,40.03496,-105.54487,stream_gauge,356.628618647609,44592,40,2015-05-22T00:00:00Z,2020-12-01T00:00:00Z,feature not yet built
<button type='button' id='neon_neon_CUPE'>view</button>,NEON,NEON,CUPE,Rio Cupeyes,Rio Cupeyes,18.11352,-66.98676,stream_gauge,425.80699893888,53752,44,2014-12-31T00:00:00Z,2020-12-01T00:00:00Z,feature not yet built
<button type='button' id='neon_neon_FLNT'>view</button>,NEON,NEON,FLNT,Flint River,Flint River,31.18542,-84.4374,stream_gauge,1498666.08860273,34382,39,2017-03-08T00:00:00Z,2020-12-01T00:00:00Z,feature not yet built
<button type='button' id='neon_neon_GUIL'>view</button>,NEON,NEON,GUIL,Rio Guilarte,Rio Guilarte,18.1741,-66.79851,stream_gauge,955.29486851723,49180,44,2015-01-23T00:00:00Z,2020-12-01T00:00:00Z,feature not yet built
<button type='button' id='neon_neon_HOPB'>view</button>,NEON,NEON,HOPB,Lower Hop Brook,Lower Hop Brook,42.47179,-72.32963,stream_gauge,1188.20105664874,42565,40,2016-09-07T00:00:00Z,2020-12-01T00:00:00Z,feature not yet built
<button type='button' id='neon_neon_KING'>view</button>,NEON,NEON,KING,Kings Creek,Kings Creek,39.10506,-96.60336,stream_gauge,1304.12533348093,48878,40,2015-06-10T00:00:00Z,2020-12-01T00:00:00Z,feature not yet built
<button type='button' id='neon_neon_LECO'>view</button>,NEON,NEON,LECO,LeConte Creek,LeConte Creek,35.69043,-83.50379,stream_gauge,912.099386541036,45265,40,2015-08-11T00:00:00Z,2020-12-01T00:00:00Z,feature not yet built
<button type='button' id='neon_neon_LEWI'>view</button>,NEON,NEON,LEWI,Lewis Run,Lewis Run,39.09564,-77.98322,stream_gauge,1190.85756655091,46237,40,2016-10-06T00:00:00Z,2020-12-01T00:00:00Z,feature not yet built
<button type='button' id='neon_neon_MART'>view</button>,NEON,NEON,MART,Martha Creek,Martha Creek,45.79125,-121.93196,stream_gauge,634.773048930957,34393,40,2017-11-08T00:00:00Z,2020-12-01T00:00:00Z,feature not yet built
<button type='button' id='neon_neon_MAYF'>view</button>,NEON,NEON,MAYF,Mayfield Creek,Mayfield Creek,32.95966,-87.40813,stream_gauge,1436.21156518353,58939,40,2014-10-22T00:00:00Z,2020-12-01T00:00:00Z,feature not yet built
<button type='button' id='neon_neon_MCDI'>view</button>,NEON,NEON,MCDI,McDiffett Creek,McDiffett Creek,38.94428,-96.44197,stream_gauge,2257.95882477408,45337,41,2016-12-14T00:00:00Z,2020-12-01T00:00:00Z,feature not yet built
<button type='button' id='neon_neon_MCRA'>view</button>,NEON,NEON,MCRA,McRae Creek,McRae Creek,44.2596,-122.16555,stream_gauge,393.221740959929,35708,40,2017-06-14T00:00:00Z,2020-12-01T00:00:00Z,feature not yet built
<button type='button' id='neon_neon_OKSR'>view</button>,NEON,NEON,OKSR,Oksrukuyik Creek,Oksrukuyik Creek,68.66975,-149.14302,stream_gauge,5781.45676179947,18198,40,2016-07-15T00:00:00Z,2020-10-08T00:00:00Z,feature not yet built
<button type='button' id='neon_neon_POSE'>view</button>,NEON,NEON,POSE,Posey Creek,Posey Creek,38.89332,-78.14678,stream_gauge,202.731453568926,57796,40,2014-07-23T00:00:00Z,2020-12-01T00:00:00Z,feature not yet built
<button type='button' id='neon_neon_PRIN'>view</button>,NEON,NEON,PRIN,Pringle Creek,Pringle Creek,33.37859,-97.78226,stream_gauge,4891.13869462525,41901,44,2016-08-31T00:00:00Z,2020-12-01T00:00:00Z,feature not yet built
<button type='button' id='neon_neon_REDB'>view</button>,NEON,NEON,REDB,Red Butte Creek,Red Butte Creek,40.78374,-111.79765,stream_gauge,1671.48265693855,37234,44,2012-02-04T00:00:00Z,2020-12-01T00:00:00Z,feature not yet built
<button type='button' id='neon_neon_SYCA'>view</button>,NEON,NEON,SYCA,Sycamore Creek,Sycamore Creek,33.74906,-111.5069,stream_gauge,28047.5052642293,20235,44,2017-06-21T00:00:00Z,2020-12-01T00:00:00Z,feature not yet built
<button type='button' id='neon_neon_TECR'>view</button>,NEON,NEON,TECR,Teakettle 2 Creek,Teakettle 2 Creek,36.95528,-119.02699,stream_gauge,297.478021358845,15125,40,2018-10-31T00:00:00Z,2020-12-01T00:00:00Z,feature not yet built
<button type='button' id='neon_neon_TOMB'>view</button>,NEON,NEON,TOMB,Lower Tombigbee River at Choctaw Refuge,Lower Tombigbee River at Choctaw Refuge,31.8521,-88.16107,stream_gauge,4710989.00396272,40412,39,2016-10-12T00:00:00Z,2020-10-14T00:00:00Z,feature not yet built
<button type='button' id='neon_neon_WALK'>view</button>,NEON,NEON,WALK,Walker Branch,Walker Branch,35.95947,-84.28041,stream_gauge,108.996108168988,57010,40,2015-04-14T00:00:00Z,2020-12-01T00:00:00Z,feature not yet built
<button type='button' id='neon_neon_WLOU'>view</button>,NEON,NEON,WLOU,West St Louis Creek,West St Louis Creek,39.89137,-105.9154,stream_gauge,490.347775627431,41808,41,2017-05-03T00:00:00Z,2020-12-01T00:00:00Z,feature not yet built
